{
    "type": "FeatureCollection",
    "features": [
        {
            "type": "Feature",
            "geometry": {
                "type": "Point",
                "coordinates": [
                    121.606686,
                    25.052116
                ]
            },
            "properties": {
                "編號": "01",
                "站名": "南港站",
                "郵遞區號": 11568,
                "地址": "台北市南港區南港路一段313號",
                "緯度": 25.052116,
                "經度": 121.606686
            }
        },
        {
            "type": "Feature",
            "geometry": {
                "type": "Point",
                "coordinates": [
                    121.517081,
                    25.047924
                ]
            },
            "properties": {
                "編號": "02",
                "站名": "台北站",
                "郵遞區號": 10041,
                "地址": "台北市中正區北平西路3號",
                "緯度": 25.047924,
                "經度": 121.517081
            }
        },
        {
            "type": "Feature",
            "geometry": {
                "type": "Point",
                "coordinates": [
                    121.463815,
                    25.014051
                ]
            },
            "properties": {
                "編號": "03",
                "站名": "板橋站",
                "郵遞區號": 22041,
                "地址": "新北市板橋區縣民大道二段7號",
                "緯度": 25.014051,
                "經度": 121.463815
            }
        },
        {
            "type": "Feature",
            "geometry": {
                "type": "Point",
                "coordinates": [
                    121.215217,
                    25.013093
                ]
            },
            "properties": {
                "編號": "04",
                "站名": "桃園站",
                "郵遞區號": 32056,
                "地址": "桃園縣中壢市高鐵北路一段6號",
                "緯度": 25.013093,
                "經度": 121.215217
            }
        },
        {
            "type": "Feature",
            "geometry": {
                "type": "Point",
                "coordinates": [
                    121.040415,
                    24.80806
                ]
            },
            "properties": {
                "編號": "05",
                "站名": "新竹站",
                "郵遞區號": 30273,
                "地址": "新竹縣竹北市高鐵七路6號",
                "緯度": 24.80806,
                "經度": 121.040415
            }
        },
        {
            "type": "Feature",
            "geometry": {
                "type": "Point",
                "coordinates": [
                    120.8268729,
                    24.6085046
                ]
            },
            "properties": {
                "編號": "06",
                "站名": "苗栗站",
                "郵遞區號": 35648,
                "地址": "苗栗縣後龍鎮高鐵三路268號",
                "緯度": 24.6085046,
                "經度": 120.8268729
            }
        },
        {
            "type": "Feature",
            "geometry": {
                "type": "Point",
                "coordinates": [
                    120.616152,
                    24.112143
                ]
            },
            "properties": {
                "編號": "07",
                "站名": "台中站",
                "郵遞區號": 41456,
                "地址": "台中市烏日區站區二路8號",
                "緯度": 24.112143,
                "經度": 120.616152
            }
        },
        {
            "type": "Feature",
            "geometry": {
                "type": "Point",
                "coordinates": [
                    120.57484110951,
                    23.874107202858
                ]
            },
            "properties": {
                "編號": "08",
                "站名": "彰化站",
                "郵遞區號": 520,
                "地址": "彰化縣田中鎮站區路二段99號",
                "緯度": 23.874107202858,
                "經度": 120.57484110951
            }
        },
        {
            "type": "Feature",
            "geometry": {
                "type": "Point",
                "coordinates": [
                    120.4173025,
                    23.7335579
                ]
            },
            "properties": {
                "編號": "09",
                "站名": "雲林站",
                "郵遞區號": 63247,
                "地址": "雲林縣虎尾鎮站前東路301號",
                "緯度": 23.7335579,
                "經度": 120.4173025
            }
        },
        {
            "type": "Feature",
            "geometry": {
                "type": "Point",
                "coordinates": [
                    120.32332,
                    23.459565
                ]
            },
            "properties": {
                "編號": "10",
                "站名": "嘉義站",
                "郵遞區號": 61241,
                "地址": "嘉義縣太保市高鐵西路168號",
                "緯度": 23.459565,
                "經度": 120.32332
            }
        },
        {
            "type": "Feature",
            "geometry": {
                "type": "Point",
                "coordinates": [
                    120.28572,
                    22.924928
                ]
            },
            "properties": {
                "編號": "11",
                "站名": "台南站",
                "郵遞區號": 71151,
                "地址": "台南市歸仁區歸仁大道100號",
                "緯度": 22.924928,
                "經度": 120.28572
            }
        },
        {
            "type": "Feature",
            "geometry": {
                "type": "Point",
                "coordinates": [
                    120.307827,
                    22.686927
                ]
            },
            "properties": {
                "編號": "12",
                "站名": "左營站",
                "郵遞區號": 81361,
                "地址": "高雄市左營區高鐵路105號",
                "緯度": 22.686927,
                "經度": 120.307827
            }
        }
    ]
}